[
    {
        "name": "LELECHA",
        "area": "Industriepark Suzhou",
        "cuisine": "Brot und Desserts",
        "pricerange": "billig",
        "metro_station": "Stimmt",
        "per_capita_consumption": "44 Yuan",
        "address": "B1, Nordabschnitt, Suzhou Center, Xinggang Street",
        "phone_number": "0512-66363836",
        "score": "4.5",
        "business_hours": "10:00–22:00, Montag bis Sonntag",
        "dishes": "Sternenklares Puddingbrötchen"
    },
    {
        "name": "HOU GA FEI",
        "area": "Wuzhong District",
        "cuisine": "Brot und Desserts",
        "pricerange": "mäßig",
        "metro_station": "FALSCH",
        "per_capita_consumption": "58 Yuan",
        "address": "South Commercial Street, Shihu Scenic Area, Shihu West Road",
        "phone_number": "0512-68210779",
        "score": "4.8",
        "business_hours": "09:30-23:00, Montag bis Sonntag",
        "dishes": "Schokoladenmuffins"
    },
    {
        "name": "Fox's Home Joghurt",
        "area": "Bezirk Gusu",
        "cuisine": "Brot und Desserts",
        "pricerange": "billig",
        "metro_station": "Stimmt",
        "per_capita_consumption": "16 Yuan",
        "address": "Nr. 256, Pingjiang Road (in der Nähe der Baita East Road)",
        "phone_number": "139-1317-0170",
        "score": "4.5",
        "business_hours": "10:00-19:00, Montag bis Sonntag",
        "dishes": "Selbstgemachter Joghurt"
    },
    {
        "name": "Cai Zhi Zhai",
        "area": "Bezirk Gusu",
        "cuisine": "Brot und Desserts",
        "pricerange": "billig",
        "metro_station": "Stimmt",
        "per_capita_consumption": "38 Yuan",
        "address": "No. 91, Guanqian Street, Gusu District, Suzhou City",
        "phone_number": "0512-67274512",
        "score": "4.3",
        "business_hours": "08:30-21:30, Montag bis Sonntag",
        "dishes": "Scone mit süßem fermentiertem Reis"
    },
    {
        "name": "L’Arôme",
        "area": "Industriepark Suzhou",
        "cuisine": "Brot und Desserts",
        "pricerange": "etwas teurer",
        "metro_station": "Stimmt",
        "per_capita_consumption": "412 Yuan",
        "address": "B3-19, 3F, South Section, Suzhou Center, Nr. 68, Suxiu Road",
        "phone_number": "0512-69881018",
        "score": "4.5",
        "business_hours": "11:30-22:00, Montag bis Sonntag",
        "dishes": "Pilzcremesuppe"
    },
    {
        "name": "Yamazaki Bakery",
        "area": "Neuer Bezirk von Suzhou",
        "cuisine": "Brot und Desserts",
        "pricerange": "billig",
        "metro_station": "Stimmt",
        "per_capita_consumption": "26 Yuan",
        "address": "das B1F des Kaufhauses Izumiya, Nr. 211, Changjiang Road",
        "phone_number": "0512-62396721",
        "score": "4.6",
        "business_hours": "10:00–22:00, Montag bis Sonntag",
        "dishes": "Königin Brot"
    },
    {
        "name": "Guimijia",
        "area": "Wujiang District",
        "cuisine": "Brot und Desserts",
        "pricerange": "billig",
        "metro_station": "FALSCH",
        "per_capita_consumption": "23 Yuan",
        "address": "Nr. 3, Xitanghe-Straße",
        "phone_number": "0512-63336664",
        "score": "4.8",
        "business_hours": "09:30-21:30, Montag bis Sonntag",
        "dishes": "Mondkuchen mit Ei und Fleisch"
    },
    {
        "name": "Nongleyuan Holzkohlegrill",
        "area": "Bezirk Gusu",
        "cuisine": "Koreanisch",
        "pricerange": "mäßig",
        "metro_station": "Stimmt",
        "per_capita_consumption": "88 Yuan",
        "address": "A502, 5F of Xicheng Yongjie Building, No. 19, Guangji South Road",
        "phone_number": "0512-68659822",
        "score": "4.6",
        "business_hours": "11:00–14:00 und 16:30–21:30, Montag bis Sonntag",
        "dishes": "Steintopfreis"
    },
    {
        "name": "Banyuan Private Home Cuisine",
        "area": "Bezirk Gusu",
        "cuisine": "Jiangsu-Zhejiang",
        "pricerange": "etwas teurer",
        "metro_station": "FALSCH",
        "per_capita_consumption": "204 Yuan",
        "address": "Nr. 3, Chuanfang Alley, nördlich der Pingjiang Road",
        "phone_number": "139-6217-0368",
        "score": "4.7",
        "business_hours": "11:30-14:00 17:30-21:30, Montag bis Sonntag",
        "dishes": "Gebratener Fisch mit Rosengeschmack"
    },
    {
        "name": "Songhelou-Restaurant",
        "area": "Bezirk Gusu",
        "cuisine": "Jiangsu-Zhejiang",
        "pricerange": "etwas teurer",
        "metro_station": "Stimmt",
        "per_capita_consumption": "150 Yuan",
        "address": "No. 72, Taijian Lane (near Xuanmiao Temple)",
        "phone_number": "0512-67700688",
        "score": "3.5",
        "business_hours": "11:00–13:30 und 17:00–20:30, Montag bis Sonntag",
        "dishes": "Süß-saurer Mandarinenfisch"
    },
    {
        "name": "Fräulein Fu in Chengdu",
        "area": "Bezirk Gusu",
        "cuisine": "Sichuan",
        "pricerange": "mäßig",
        "metro_station": "FALSCH",
        "per_capita_consumption": "73 Yuan",
        "address": "an der Kreuzung der Jingde Road und der Xueshi Street, neben dem Suzhou Museum of Traditional Chinese Medicine",
        "phone_number": "0512-67299832",
        "score": "4.6",
        "business_hours": "11:00-24:00, Montag bis Sonntag",
        "dishes": "Klebreiskuchen aus braunem Zucker"
    },
    {
        "name": "Laotianqiao Frog Hot Pot",
        "area": "Bezirk Gusu",
        "cuisine": "Eintopf",
        "pricerange": "etwas teurer",
        "metro_station": "FALSCH",
        "per_capita_consumption": "120 Yuan",
        "address": "No. 54, Xueshi Street",
        "phone_number": "0512-65816338",
        "score": "4.6",
        "business_hours": "ganztägig, Montag bis Sonntag",
        "dishes": "Ochsenfrösche"
    },
    {
        "name": "Fischrestaurant Tang Palace",
        "area": "Bezirk Gusu",
        "cuisine": "Kantonesisch",
        "pricerange": "etwas teurer",
        "metro_station": "Stimmt",
        "per_capita_consumption": "135 Yuan",
        "address": "5F, Ostgebäude der Metro Mall, Nr. 245, Guanqian Street",
        "phone_number": "0512-69168288",
        "score": "4.6",
        "business_hours": "10:00–22:00, Montag bis Sonntag",
        "dishes": "Gedämpfte Hühnerpfoten mit fermentiertem Sojabohnensaft"
    },
    {
        "name": "Beijiang Restaurant",
        "area": "Bezirk Gusu",
        "cuisine": "Nordwestlich",
        "pricerange": "billig",
        "metro_station": "Stimmt",
        "per_capita_consumption": "67 Yuan",
        "address": "Nr. 428, East Ganjiang Road",
        "phone_number": "0512-67557020",
        "score": "4.4",
        "business_hours": "10:00–22:00, Montag bis Sonntag",
        "dishes": "Xinjiang Big Plate Chicken"
    },
    {
        "name": "Li Li Xiao Chao",
        "area": "Bezirk Gusu",
        "cuisine": "Nordöstliche chinesische Küche",
        "pricerange": "billig",
        "metro_station": "FALSCH",
        "per_capita_consumption": "29 Yuan",
        "address": "Nr. 1 Shizi Street, West Gate der Soochow University",
        "phone_number": "180-1350-3488",
        "score": "4.5",
        "business_hours": "08:00-21:00, Montag bis Sonntag",
        "dishes": "Zweimal gekochtes Schweinefleisch"
    },
    {
        "name": "Dongwu Noodle House",
        "area": "Bezirk Gusu",
        "cuisine": "Fastfood",
        "pricerange": "billig",
        "metro_station": "Stimmt",
        "per_capita_consumption": "18 Yuan",
        "address": "Nr. 22, Nord-Tongjing-Straße",
        "phone_number": "0512-65707783",
        "score": "4.7",
        "business_hours": "06:00-14:00 16:30-19:00, Montag bis Sonntag",
        "dishes": "Hühnersuppe Nudeln"
    },
    {
        "name": "Deyuelou",
        "area": "Industriepark Suzhou",
        "cuisine": "Jiangsu-Zhejiang",
        "pricerange": "etwas teurer",
        "metro_station": "FALSCH",
        "per_capita_consumption": "176 Yuan",
        "address": "Nr. 22, Ligong Causeway Road",
        "phone_number": "0512-62656999",
        "score": "4.3",
        "business_hours": "10:30-14:00 16:30-21:00, Montag bis Sonntag",
        "dishes": "Geschmorte Krabbe mit Tofu"
    },
    {
        "name": "Wanyuting·hejiariben Cuisine Teppanyaki",
        "area": "Industriepark Suzhou",
        "cuisine": "japanisch",
        "pricerange": "etwas teurer",
        "metro_station": "FALSCH",
        "per_capita_consumption": "177 Yuan",
        "address": "1F, Hubin Xintiandi Lakeside Building, No. 158, Xinggang Street",
        "phone_number": "0512-67678177",
        "score": "4.5",
        "business_hours": "10:00-15:00 und 17:00-22:30, Montag bis Sonntag",
        "dishes": "Lachs"
    },
    {
        "name": "Omas Zuhause",
        "area": "Industriepark Suzhou",
        "cuisine": "Jiangsu-Zhejiang",
        "pricerange": "billig",
        "metro_station": "Stimmt",
        "per_capita_consumption": "63 Yuan",
        "address": "4F, Harmony City, Nr. 269, Wang Dun Road, Industriepark Suzhou",
        "phone_number": "0512-62857757",
        "score": "4.5",
        "business_hours": "11:00-14:00 und 16:30-21:00, Montag bis Sonntag",
        "dishes": "Omas rot geschmorter Schweinebauch"
    },
    {
        "name": "Wang-Steak",
        "area": "Industriepark Suzhou",
        "cuisine": "Western",
        "pricerange": "etwas teurer",
        "metro_station": "Stimmt",
        "per_capita_consumption": "405 Yuan",
        "address": "im 2. Stock des Shin Kong Place, an der Kreuzung der Suzhou Avenue East und der Huachi Street",
        "phone_number": "0512-62567071",
        "score": "4.6",
        "business_hours": "11:30–14:00 und 17:30–21:00, Montag bis Sonntag",
        "dishes": "Tai-sow Beefsteak"
    },
    {
        "name": "Haidilao Hot Pot",
        "area": "Industriepark Suzhou",
        "cuisine": "Eintopf",
        "pricerange": "etwas teurer",
        "metro_station": "FALSCH",
        "per_capita_consumption": "127 Yuan",
        "address": "Es befindet sich auf 4F des Saige Digital Plaza, Nr. 318, Suya Road.",
        "phone_number": "0512-67603337",
        "score": "4.8",
        "business_hours": "09:00-07:00, Montag bis Sonntag",
        "dishes": "Es wird empfohlen, den Tomatentopf zu geben"
    },
    {
        "name": "Xibei Restaurant",
        "area": "Industriepark Suzhou",
        "cuisine": "Nordwestlich",
        "pricerange": "mäßig",
        "metro_station": "Stimmt",
        "per_capita_consumption": "92 Yuan",
        "address": "4F, Harmony City, Nr. 269, Wang Dun Road",
        "phone_number": "400-8207320",
        "score": "4.6",
        "business_hours": "10:30-21:30, Montag bis Sonntag",
        "dishes": "Großer Kuhknochen"
    },
    {
        "name": "Zhen Pin Yue Teahouse",
        "area": "Industriepark Suzhou",
        "cuisine": "Kantonesisch",
        "pricerange": "mäßig",
        "metro_station": "Stimmt",
        "per_capita_consumption": "99 Yuan",
        "address": "No.133, TianXiang Garden, No.386, Suxiu Road",
        "phone_number": "0512-62568777",
        "score": "4.4",
        "business_hours": "10:30-21:30, Montag bis Sonntag",
        "dishes": "gebratene Gans"
    },
    {
        "name": "Gegrillter Fisch am Fluss",
        "area": "Industriepark Suzhou",
        "cuisine": "Sichuan",
        "pricerange": "mäßig",
        "metro_station": "Stimmt",
        "per_capita_consumption": "90 Yuan",
        "address": "Harmony Constellation Plaza City, Nr. 269, Wang Dun Road",
        "phone_number": "0512-67634656",
        "score": "4.3",
        "business_hours": "10:30-22:00, Montag bis Sonntag",
        "dishes": "Gegrillter ganzer Fisch in einzigartiger Sauce"
    },
    {
        "name": "Qing He Gu",
        "area": "Industriepark Suzhou",
        "cuisine": "Koreanisch",
        "pricerange": "etwas teurer",
        "metro_station": "FALSCH",
        "per_capita_consumption": "154 Yuan",
        "address": "No. 21 Building, Li Gongdi Phase 3",
        "phone_number": "0512-67635689",
        "score": "4.8",
        "business_hours": "11:30-21:00, Montag bis Sonntag",
        "dishes": "Kimchi-Torte"
    },
    {
        "name": "Xin Hua Xi Beef Rice Noodle",
        "area": "Industriepark Suzhou",
        "cuisine": "Fastfood",
        "pricerange": "billig",
        "metro_station": "FALSCH",
        "per_capita_consumption": "24 Yuan",
        "address": "2F der Suzhou-Bühne, Houdai-Straße Nr. 9",
        "phone_number": "0512-62811808",
        "score": "4.6",
        "business_hours": "09:00-20:00, Montag bis Sonntag",
        "dishes": "Nudel der Essenz von Rinderinnereien"
    },
    {
        "name": "Goodman Volkssnacks",
        "area": "Wuzhong District",
        "cuisine": "Fastfood",
        "pricerange": "billig",
        "metro_station": "Stimmt",
        "per_capita_consumption": "42 Yuan",
        "address": "Nr. 47-1, Jinshan Road (Nr. B1001-2, Etage B1, Mudu Tianhong Mall)",
        "phone_number": "0512-83989318",
        "score": "4.5",
        "business_hours": "10:00–20:30, Montag bis Sonntag",
        "dishes": "Gekochter Fisch ohne Knochen mit eingelegtem Kohl und Chili"
    },
    {
        "name": "Laofengting",
        "area": "Wuzhong District",
        "cuisine": "Jiangsu-Zhejiang",
        "pricerange": "mäßig",
        "metro_station": "FALSCH",
        "per_capita_consumption": "94 Yuan",
        "address": "Gebäude 5, Pattaya Leisure and Entertainment Plaza, Nr. 55, Lintian Road, Mudu",
        "phone_number": "0512-66277557",
        "score": "4.6",
        "business_hours": "11:00–13:30 und 17:00–20:30, Montag bis Sonntag",
        "dishes": "Süß-saurer Mandarinenfisch"
    },
    {
        "name": "Yang Guan Gu Ren",
        "area": "Wuzhong District",
        "cuisine": "Nordwestlich",
        "pricerange": "mäßig",
        "metro_station": "FALSCH",
        "per_capita_consumption": "87 Yuan",
        "address": "im 3. Stock, direkt neben dem Aufzug von CR Vanguard, Nr. 128, Jiuhua Road",
        "phone_number": "0512-65074650",
        "score": "4.8",
        "business_hours": "10:00–22:00, Montag bis Sonntag",
        "dishes": "gebratenes Hammelfleisch mit Schalotte"
    },
    {
        "name": "Sichuan Xiang Tian Xia Hot Pot",
        "area": "Wuzhong District",
        "cuisine": "Eintopf",
        "pricerange": "mäßig",
        "metro_station": "FALSCH",
        "per_capita_consumption": "97 Yuan",
        "address": "Floor 1, Building 1, No. 1109, Wuzhong Avenue, Yuexi Street, Wuzhong Economic Development Zone, Suzhou",
        "phone_number": "0512-66171777",
        "score": "4.4",
        "business_hours": "11:00-23:30, Montag bis Sonntag",
        "dishes": "Schneeflocken-Rindfleisch"
    },
    {
        "name": "One Plus Fließband-Sushi",
        "area": "Wuzhong District",
        "cuisine": "japanisch",
        "pricerange": "billig",
        "metro_station": "FALSCH",
        "per_capita_consumption": "58 Yuan",
        "address": "1F, Aeon Mall, No. 188, Suzhentao Road, Yuexi",
        "phone_number": "0512-65884527",
        "score": "4.4",
        "business_hours": "10:00–22:00, Montag bis Sonntag",
        "dishes": "Foie gras, Gänsestopfleber, Stopfleber"
    },
    {
        "name": "Nailaoshiguang",
        "area": "Wuzhong District",
        "cuisine": "Western",
        "pricerange": "mäßig",
        "metro_station": "Stimmt",
        "per_capita_consumption": "85 Yuan",
        "address": "1F, Gebäude 13, Mudu Studio",
        "phone_number": "0512-67087949",
        "score": "4.7",
        "business_hours": "09:30-21:00, Montag bis Sonntag",
        "dishes": "Spaghetti Bolognese"
    },
    {
        "name": "Koreanische Küche aus Seoul",
        "area": "Wuzhong District",
        "cuisine": "Koreanisch",
        "pricerange": "mäßig",
        "metro_station": "Stimmt",
        "per_capita_consumption": "81 Yuan",
        "address": "Lifeng Plaza 1F, No. 399, Baodaidong Road",
        "phone_number": "139-1359-2929",
        "score": "4.7",
        "business_hours": "10:30-21:00, Montag bis Sonntag",
        "dishes": "Steintopfreis"
    },
    {
        "name": "Nordöstliches Restaurant",
        "area": "Wuzhong District",
        "cuisine": "Nordöstliche chinesische Küche",
        "pricerange": "billig",
        "metro_station": "FALSCH",
        "per_capita_consumption": "49 Yuan",
        "address": "In der Nähe der Kreuzung der Xushi Street und der Zhongshi Street",
        "phone_number": "0512-66310773",
        "score": "4.3",
        "business_hours": "10:30-21:00, Montag bis Sonntag",
        "dishes": "Gekochte Schweinefleischscheiben"
    },
    {
        "name": "Würzige Erinnerung",
        "area": "Neuer Bezirk von Suzhou",
        "cuisine": "Sichuan",
        "pricerange": "mäßig",
        "metro_station": "Stimmt",
        "per_capita_consumption": "75 Yuan",
        "address": "Nr. 162, Tayuan Road, Suzhou New District",
        "phone_number": "0512-68249987",
        "score": "4.3",
        "business_hours": "10:30-01:00, Montag bis Sonntag",
        "dishes": "Chili-Fischkopf"
    },
    {
        "name": "Aobanischer Hot Pot",
        "area": "Neuer Bezirk von Suzhou",
        "cuisine": "Eintopf",
        "pricerange": "etwas teurer",
        "metro_station": "Stimmt",
        "per_capita_consumption": "127 Yuan",
        "address": "das 6F des Golden Eagle International Shopping Center, Nr. 298, Shishan Road",
        "phone_number": "0512-68783880",
        "score": "4.2",
        "business_hours": "11:00-22:00, Montag bis Sonntag",
        "dishes": "die Garnelenbällchen"
    },
    {
        "name": "Traum von Taoyuan",
        "area": "Neuer Bezirk von Suzhou",
        "cuisine": "Jiangsu-Zhejiang",
        "pricerange": "billig",
        "metro_station": "Stimmt",
        "per_capita_consumption": "31 Yuan",
        "address": "das B1F des Kaufhauses Izumiya, Nr. 211, Changjiang Road",
        "phone_number": "0512-68207978",
        "score": "4.5",
        "business_hours": "10:00-21:30, Montag bis Sonntag",
        "dishes": "Tofu-Pudding"
    },
    {
        "name": "Brauerei-Restaurant Le Blé d'Or",
        "area": "Neuer Bezirk von Suzhou",
        "cuisine": "Western",
        "pricerange": "etwas teurer",
        "metro_station": "FALSCH",
        "per_capita_consumption": "179 Yuan",
        "address": "Etage 4, Jinhe International Building, Nr. 35, Shishan Road",
        "phone_number": "0512-66655909",
        "score": "4.6",
        "business_hours": "11:00-24:00, Montag bis Sonntag",
        "dishes": "Pizzen"
    },
    {
        "name": "Japanisches Restaurant Zhiwei",
        "area": "Neuer Bezirk von Suzhou",
        "cuisine": "japanisch",
        "pricerange": "etwas teurer",
        "metro_station": "FALSCH",
        "per_capita_consumption": "215 Yuan",
        "address": "No.11, Huaihai Street",
        "phone_number": "0512-68618677",
        "score": "4.5",
        "business_hours": "11:00-14:00 16:00-22:00, Montag bis Sonntag",
        "dishes": "Lachs"
    },
    {
        "name": "DuoDuo Wang Hong Kong Style Tea Restaurant",
        "area": "Neuer Bezirk von Suzhou",
        "cuisine": "Kantonesisch",
        "pricerange": "billig",
        "metro_station": "FALSCH",
        "per_capita_consumption": "65 Yuan",
        "address": "Etage 1, Wugong Lidu Commercial Street, Nr. 215, Shishan Road",
        "phone_number": "0512-68788933",
        "score": "4.4",
        "business_hours": "09:30-02:00, Montag bis Sonntag",
        "dishes": "Reisbrei mit Meeresfrüchten"
    },
    {
        "name": "Palsaik Koreanisch +Q",
        "area": "Neuer Bezirk von Suzhou",
        "cuisine": "Koreanisch",
        "pricerange": "mäßig",
        "metro_station": "Stimmt",
        "per_capita_consumption": "103 Yuan",
        "address": "113, 1F von Gebäude 7 im zweiten Abschnitt der Emerald Pedestrian Street, The Emerald City, Changjiang Road",
        "phone_number": "0512-62919949",
        "score": "4.2",
        "business_hours": "10:00–22:00, Montag bis Sonntag",
        "dishes": "würzige Ramen"
    },
    {
        "name": "Yangs Knödel",
        "area": "Neuer Bezirk von Suzhou",
        "cuisine": "Fastfood",
        "pricerange": "billig",
        "metro_station": "Stimmt",
        "per_capita_consumption": "20 Yuan",
        "address": "Nr. 211, Changjiang Road, Suzhou New District",
        "phone_number": "0512-68799751",
        "score": "4.5",
        "business_hours": "10:00–22:00, Montag bis Sonntag",
        "dishes": "Gebratenes Garnelenbrötchen"
    },
    {
        "name": "Guan Zhi North",
        "area": "Neuer Bezirk von Suzhou",
        "cuisine": "Nordöstliche chinesische Küche",
        "pricerange": "billig",
        "metro_station": "FALSCH",
        "per_capita_consumption": "58 Yuan",
        "address": "Etage 2, Aeon Mall, Nr. 19, Intercity Road",
        "phone_number": "0512-62917283",
        "score": "4.3",
        "business_hours": "10:30-22:00, Montag bis Sonntag",
        "dishes": "Knochen in Soße"
    },
    {
        "name": "Wufangzhai",
        "area": "Wujiang District",
        "cuisine": "Fastfood",
        "pricerange": "billig",
        "metro_station": "FALSCH",
        "per_capita_consumption": "33 Yuan",
        "address": "Kreuzung der Liuhong Road und der Luxiang South Road, Bezirk Wujiang",
        "phone_number": "0512-63575791",
        "score": "4.6",
        "business_hours": "07:30-20:30, Montag bis Sonntag",
        "dishes": "Fleisch- und Eigelbknödel"
    },
    {
        "name": "Meister Jan",
        "area": "Wujiang District",
        "cuisine": "Sichuan",
        "pricerange": "mäßig",
        "metro_station": "FALSCH",
        "per_capita_consumption": "80 Yuan",
        "address": "Zhongqingnian Boutique on Henggang Road",
        "phone_number": "0512-86876178",
        "score": "4.6",
        "business_hours": "10:00-21:00, Montag bis Sonntag",
        "dishes": "Sichuan Dandan Noodles"
    },
    {
        "name": "Chongqing De Zhuang Hot Pot",
        "area": "Wujiang District",
        "cuisine": "Eintopf",
        "pricerange": "etwas teurer",
        "metro_station": "FALSCH",
        "per_capita_consumption": "130 Yuan",
        "address": "S3015, F3, Wanbao Plaza, Songling",
        "phone_number": "0512-88982265",
        "score": "4.5",
        "business_hours": "10:00–22:00, Montag bis Sonntag",
        "dishes": "die Garnelenbällchen"
    },
    {
        "name": "Tongli Heimatstadt",
        "area": "Wujiang District",
        "cuisine": "Jiangsu-Zhejiang",
        "pricerange": "mäßig",
        "metro_station": "FALSCH",
        "per_capita_consumption": "87 Yuan",
        "address": "Nr. 318, Huanhu West Road, Stadt Tongli",
        "phone_number": "0512-63339777",
        "score": "4.5",
        "business_hours": "10:00–22:00, Montag bis Sonntag",
        "dishes": "Weißer Fisch, Silberfischchen und weiße Garnelen des Taihu-Sees"
    },
    {
        "name": "Niutanjia Ben'Ge Holzkohlegrill",
        "area": "Wujiang District",
        "cuisine": "japanisch",
        "pricerange": "mäßig",
        "metro_station": "FALSCH",
        "per_capita_consumption": "90 Yuan",
        "address": "Nr. 1066, Lushen Avenue, Wirtschaftsentwicklungszone Fenhu",
        "phone_number": "0512-63263679",
        "score": "4.6",
        "business_hours": "11:00-22:00, Montag bis Sonntag",
        "dishes": "Lachs-Sushi"
    },
    {
        "name": "Zhou Zhuang Hua Jian Tang Jie Geng Restaurant",
        "area": "Kunschan",
        "cuisine": "Jiangsu-Zhejiang",
        "pricerange": "mäßig",
        "metro_station": "FALSCH",
        "per_capita_consumption": "98 Yuan",
        "address": "10 Meter nördlich des malerischen Ortes Zhongshi Street Nr. 110, Stadt Zhouzhuang",
        "phone_number": "138-1289-9961",
        "score": "4.5",
        "business_hours": "07:00-20:30, Montag bis Sonntag",
        "dishes": "Gebratener Whitebait mit Rührei"
    },
    {
        "name": "Xiewang Restaurant",
        "area": "Changshu",
        "cuisine": "Jiangsu-Zhejiang",
        "pricerange": "billig",
        "metro_station": "FALSCH",
        "per_capita_consumption": "60 Yuan",
        "address": "in der Nähe des Parkplatzes der malerischen Gegend, Luweidang Road",
        "phone_number": "0512-52507977",
        "score": "4.8",
        "business_hours": "08:00-20:00, Montag bis Sonntag",
        "dishes": "Haarige Krabbe"
    }
]