[
    {
        "name": "LELECHA",
        "area": "Suzhou Industrial Park",
        "cuisine": "Brot und Desserts",
        "pricerange": "günstig",
        "metro_station": "true",
        "per_capita_consumption": "44 Yuan",
        "address": "B1, Nordabschnitt, Suzhou Center, Xinggang Street",
        "phone_number": "0512-66363836",
        "score": "4,5",
        "business_hours": "10:00–22:00, Montag bis Sonntag",
        "dishes": "Sternenklares Puddingbrötchen"
    },
    {
        "name": "HOU GA FEI",
        "area": "Bezirk Wuzhong",
        "cuisine": "Brot und Desserts",
        "pricerange": "gemäßigt",
        "metro_station": "false",
        "per_capita_consumption": "58 Yuan",
        "address": "South Commercial Street, Shihu Scenic Area, Shihu West Road",
        "phone_number": "0512-68210779",
        "score": "4,8",
        "business_hours": "09:30-23:00, Montag bis Sonntag",
        "dishes": "Schokoladenmuffins"
    },
    {
        "name": "Fox's Home Joghurt",
        "area": "Bezirk Gusu",
        "cuisine": "Brot und Desserts",
        "pricerange": "günstig",
        "metro_station": "true",
        "per_capita_consumption": "16 Yuan",
        "address": "Pingjiang Road Nr. 256 (in der Nähe der Baita East Road)",
        "phone_number": "139-1317-0170",
        "score": "4,5",
        "business_hours": "10:00-19:00, Montag bis Sonntag",
        "dishes": "Selbstgemachter Joghurt"
    },
    {
        "name": "Cai Zhi Zhai",
        "area": "Bezirk Gusu",
        "cuisine": "Brot und Desserts",
        "pricerange": "günstig",
        "metro_station": "true",
        "per_capita_consumption": "38 Yuan",
        "address": "Guanqian Street Nr. 91, Gusu District, Suzhou City",
        "phone_number": "0512-67274512",
        "score": "4,3",
        "business_hours": "08:30-21:30, Montag bis Sonntag",
        "dishes": "Scone mit süßem fermentiertem Reis"
    },
    {
        "name": "L’Arôme",
        "area": "Suzhou Industrial Park",
        "cuisine": "Brot und Desserts",
        "pricerange": "etwas teurer",
        "metro_station": "true",
        "per_capita_consumption": "412 Yuan",
        "address": "B3-19, 3F, South Section, Suzhou Center, Suxiu Road Nr. 68",
        "phone_number": "0512-69881018",
        "score": "4,5",
        "business_hours": "11:30-22:00, Montag bis Sonntag",
        "dishes": "Pilzcremesuppe"
    },
    {
        "name": "Yamazaki Bakery",
        "area": "Suzhou New District",
        "cuisine": "Brot und Desserts",
        "pricerange": "günstig",
        "metro_station": "true",
        "per_capita_consumption": "26 Yuan",
        "address": "das B1F des Kaufhauses Izumiya, Changjiang Road Nr. 211",
        "phone_number": "0512-62396721",
        "score": "4,6",
        "business_hours": "10:00–22:00, Montag bis Sonntag",
        "dishes": "Queen Bread"
    },
    {
        "name": "Guimijia",
        "area": "Bezirk Wujiang",
        "cuisine": "Brot und Desserts",
        "pricerange": "günstig",
        "metro_station": "false",
        "per_capita_consumption": "23 Yuan",
        "address": "Xitanghe-Straße Nr. 3",
        "phone_number": "0512-63336664",
        "score": "4,8",
        "business_hours": "09:30-21:30, Montag bis Sonntag",
        "dishes": "Mondkuchen mit Ei und Fleisch"
    },
    {
        "name": "Nongleyuan Holzkohlegrill",
        "area": "Bezirk Gusu",
        "cuisine": "koreanisch",
        "pricerange": "gemäßigt",
        "metro_station": "true",
        "per_capita_consumption": "88 Yuan",
        "address": "A502, 5F des Xicheng Yongjie Gebäudes, Guangji South Road Nr. 19",
        "phone_number": "0512-68659822",
        "score": "4,6",
        "business_hours": "11:00–14:00 und 16:30–21:30, Montag bis Sonntag",
        "dishes": "Steintopfreis"
    },
    {
        "name": "Banyuan Private Home Cuisine",
        "area": "Bezirk Gusu",
        "cuisine": "Jiangsu-Zhejiang",
        "pricerange": "etwas teurer",
        "metro_station": "false",
        "per_capita_consumption": "204 Yuan",
        "address": "Chuanfang Alley Nr. 3, nördlich der Pingjiang Road",
        "phone_number": "139-6217-0368",
        "score": "4,7",
        "business_hours": "11:30-14:00 17:30-21:30, Montag bis Sonntag",
        "dishes": "Gebratener Fisch mit Rosengeschmack"
    },
    {
        "name": "Songhelou-Restaurant",
        "area": "Bezirk Gusu",
        "cuisine": "Jiangsu-Zhejiang",
        "pricerange": "etwas teurer",
        "metro_station": "true",
        "per_capita_consumption": "150 Yuan",
        "address": "Taijian Lane Nr. 72 (in der Nähe des Xuanmiao Tempels)",
        "phone_number": "0512-67700688",
        "score": "3,5",
        "business_hours": "11:00–13:30 und 17:00–20:30, Montag bis Sonntag",
        "dishes": "Süß-saurer Mandarin Fisch"
    },
    {
        "name": "Fräulein Fu in Chengdu",
        "area": "Bezirk Gusu",
        "cuisine": "Sichuan",
        "pricerange": "gemäßigt",
        "metro_station": "false",
        "per_capita_consumption": "73 Yuan",
        "address": "an der Kreuzung der Jingde Road und der Xueshi Street, neben dem Suzhou Museum of Traditional Chinese Medicine",
        "phone_number": "0512-67299832",
        "score": "4,6",
        "business_hours": "11:00-24:00, Montag bis Sonntag",
        "dishes": "Klebreiskuchen aus braunem Zucker"
    },
    {
        "name": "Laotianqiao Frog Hot Pot",
        "area": "Bezirk Gusu",
        "cuisine": "Hot Pot",
        "pricerange": "etwas teurer",
        "metro_station": "false",
        "per_capita_consumption": "120 Yuan",
        "address": "Xueshi Street Nr. 54",
        "phone_number": "0512-65816338",
        "score": "4,6",
        "business_hours": "ganztägig, Montag bis Sonntag",
        "dishes": "Ochsenfrösche"
    },
    {
        "name": "Fischrestaurant Tang Palace",
        "area": "Bezirk Gusu",
        "cuisine": "kantonesisch",
        "pricerange": "etwas teurer",
        "metro_station": "true",
        "per_capita_consumption": "135 Yuan",
        "address": "5F, Ostgebäude der Metro Mall, Guanqian Street Nr. 245",
        "phone_number": "0512-69168288",
        "score": "4,6",
        "business_hours": "10:00–22:00, Montag bis Sonntag",
        "dishes": "Gedämpfte Hühnerfüße mit fermentiertem Sojabohnensaft"
    },
    {
        "name": "Restaurant Beijiang",
        "area": "Bezirk Gusu",
        "cuisine": "nordwestlich",
        "pricerange": "günstig",
        "metro_station": "true",
        "per_capita_consumption": "67 Yuan",
        "address": "East Ganjiang Road Nr. 428",
        "phone_number": "0512-67557020",
        "score": "4,4",
        "business_hours": "10:00–22:00, Montag bis Sonntag",
        "dishes": "Xinjiang Big Plate Chicken"
    },
    {
        "name": "Li Li Xiao Chao",
        "area": "Bezirk Gusu",
        "cuisine": "nordöstliche chinesische Küche",
        "pricerange": "günstig",
        "metro_station": "false",
        "per_capita_consumption": "29 Yuan",
        "address": "Shizi Street Nr. 1, Westtor der Soochow Universität",
        "phone_number": "180-1350-3488",
        "score": "4,5",
        "business_hours": "08:00-21:00, Montag bis Sonntag",
        "dishes": "Zweimal gekochtes Schweinefleisch"
    },
    {
        "name": "Dongwu Noodle House",
        "area": "Bezirk Gusu",
        "cuisine": "Fastfood",
        "pricerange": "günstig",
        "metro_station": "true",
        "per_capita_consumption": "18 Yuan",
        "address": "Nord-Tongjing-Straße Nr. 22",
        "phone_number": "0512-65707783",
        "score": "4,7",
        "business_hours": "06:00-14:00 16:30-19:00, Montag bis Sonntag",
        "dishes": "Hühnersuppe mit Nudeln"
    },
    {
        "name": "Deyuelou",
        "area": "Suzhou Industrial Park",
        "cuisine": "Jiangsu-Zhejiang",
        "pricerange": "etwas teurer",
        "metro_station": "false",
        "per_capita_consumption": "176 Yuan",
        "address": "Ligong Causeway Road Nr. 22",
        "phone_number": "0512-62656999",
        "score": "4,3",
        "business_hours": "10:30-14:00 16:30-21:00, Montag bis Sonntag",
        "dishes": "Geschmorte Krabbe mit Tofu"
    },
    {
        "name": "Wanyuting·hejiariben Cuisine Teppanyaki",
        "area": "Suzhou Industrial Park",
        "cuisine": "japanisch",
        "pricerange": "etwas teurer",
        "metro_station": "false",
        "per_capita_consumption": "177 Yuan",
        "address": "1F, Hubin Xintiandi Lakeside Building, Xinggang Street Nr. 158",
        "phone_number": "0512-67678177",
        "score": "4,5",
        "business_hours": "10:00-15:00 und 17:00-22:30, Montag bis Sonntag",
        "dishes": "Lachs"
    },
    {
        "name": "Grandma's Home",
        "area": "Suzhou Industrial Park",
        "cuisine": "Jiangsu-Zhejiang",
        "pricerange": "günstig",
        "metro_station": "true",
        "per_capita_consumption": "63 Yuan",
        "address": "4F, Harmony City, Wang Dun Road Nr. 269, Industriepark Suzhou",
        "phone_number": "0512-62857757",
        "score": "4,5",
        "business_hours": "11:00-14:00 und 16:30-21:00, Montag bis Sonntag",
        "dishes": "Großmutters rot geschmorter Schweinebauch"
    },
    {
        "name": "Steak Wang",
        "area": "Suzhou Industrial Park",
        "cuisine": "westlich",
        "pricerange": "etwas teurer",
        "metro_station": "true",
        "per_capita_consumption": "405 Yuan",
        "address": "im 2. Stock des Shin Kong Place, an der Kreuzung der Suzhou Avenue East und der Huachi Street",
        "phone_number": "0512-62567071",
        "score": "4,6",
        "business_hours": "11:30–14:00 und 17:30–21:00, Montag bis Sonntag",
        "dishes": "Tai-sow Beefsteak"
    },
    {
        "name": "Haidilao Hot Pot",
        "area": "Suzhou Industrial Park",
        "cuisine": "Hot Pot",
        "pricerange": "etwas teurer",
        "metro_station": "false",
        "per_capita_consumption": "127 Yuan",
        "address": "Es befindet sich auf 4F des Saige Digital Plaza, Suya Road Nr. 318.",
        "phone_number": "0512-67603337",
        "score": "4,8",
        "business_hours": "09:00-07:00, Montag bis Sonntag",
        "dishes": "Es wird empfohlen, den Tomateneintopf"
    },
    {
        "name": "Restaurant Xibei",
        "area": "Suzhou Industrial Park",
        "cuisine": "nordwestlich",
        "pricerange": "gemäßigt",
        "metro_station": "true",
        "per_capita_consumption": "92 Yuan",
        "address": "4F, Harmony City, Wang Dun Road Nr. 26",
        "phone_number": "400-8207320",
        "score": "4,6",
        "business_hours": "10:30-21:30, Montag bis Sonntag",
        "dishes": "Großer Kuhknochen"
    },
    {
        "name": "Zhen Pin Yue Teehaus",
        "area": "Suzhou Industrial Park",
        "cuisine": "kantonesisch",
        "pricerange": "gemäßigt",
        "metro_station": "true",
        "per_capita_consumption": "99 Yuan",
        "address": "Nr.133, TianXiang Garden, Nr.386, Suxiu Road",
        "phone_number": "0512-62568777",
        "score": "4,4",
        "business_hours": "10:30-21:30, Montag bis Sonntag",
        "dishes": "gebratene Gans"
    },
    {
        "name": "Riverside Grilled Fish",
        "area": "Suzhou Industrial Park",
        "cuisine": "Sichuan",
        "pricerange": "gemäßigt",
        "metro_station": "true",
        "per_capita_consumption": "90 Yuan",
        "address": "Harmony Constellation Plaza City, Wang Dun Road Nr. 269",
        "phone_number": "0512-67634656",
        "score": "4,3",
        "business_hours": "10:30-22:00, Montag bis Sonntag",
        "dishes": "Gegrillter ganzer Fisch in einzigartiger Sauce"
    },
    {
        "name": "Qing He Gu",
        "area": "Suzhou Industrial Park",
        "cuisine": "koreanisch",
        "pricerange": "etwas teurer",
        "metro_station": "false",
        "per_capita_consumption": "154 Yuan",
        "address": "Gebäude Nr. 21, Li Gongdi Phase 3",
        "phone_number": "0512-67635689",
        "score": "4,8",
        "business_hours": "11:30-21:00, Montag bis Sonntag",
        "dishes": "Kimchi-Pie"
    },
    {
        "name": "Xin Hua Xi Beef Rice Noodle",
        "area": "Suzhou Industrial Park",
        "cuisine": "Fastfood",
        "pricerange": "günstig",
        "metro_station": "false",
        "per_capita_consumption": "24 Yuan",
        "address": "2F der Suzhou-Bühne, Houdai-Straße Nr. 9",
        "phone_number": "0512-62811808",
        "score": "4,6",
        "business_hours": "09:00-20:00, Montag bis Sonntag",
        "dishes": "Nudeln mit der Essenz von Rinderinnereien"
    },
    {
        "name": "Goodman Folk Snacks",
        "area": "Bezirk Wuzhong",
        "cuisine": "Fastfood",
        "pricerange": "günstig",
        "metro_station": "true",
        "per_capita_consumption": "42 Yuan",
        "address": "Jinshan Road N3.47-1 (Nr. B1001-2, Stockwerk B1, Mudu Tianhong Mall)",
        "phone_number": "0512-83989318",
        "score": "4,5",
        "business_hours": "10:00–20:30, Montag bis Sonntag",
        "dishes": "gekochten Fisch ohne Knochen mit eingelegtem Kohl und Chili"
    },
    {
        "name": "Laofengting",
        "area": "Bezirk Wuzhong",
        "cuisine": "Jiangsu-Zhejiang",
        "pricerange": "gemäßigt",
        "metro_station": "false",
        "per_capita_consumption": "94 Yuan",
        "address": "Gebäude 5, Pattaya Leisure and Entertainment Plaza, Lintian Road Nr. 55, Mudu",
        "phone_number": "0512-66277557",
        "score": "4,6",
        "business_hours": "11:00–13:30 und 17:00–20:30, Montag bis Sonntag",
        "dishes": "Süß-saurer Mandarin Fisch"
    },
    {
        "name": "Yang Guan Gu Ren",
        "area": "Bezirk Wuzhong",
        "cuisine": "nordwestlich",
        "pricerange": "gemäßigt",
        "metro_station": "false",
        "per_capita_consumption": "87 Yuan",
        "address": "3. Stock, direkt neben dem Aufzug des CR Vanguard, Jiuhua Straße Nr. 128",
        "phone_number": "0512-65074650",
        "score": "4,8",
        "business_hours": "10:00–22:00, Montag bis Sonntag",
        "dishes": "gebratenes Hammelfleisch mit Schalotte"
    },
    {
        "name": "Sichuan Xiang Tian Xia Hot Pot",
        "area": "Bezirk Wuzhong",
        "cuisine": "Hot Pot",
        "pricerange": "gemäßigt",
        "metro_station": "false",
        "per_capita_consumption": "97 Yuan",
        "address": "Stockwerk 1, Gebäude 1, Wuzhong Avenue Nr. 1109, Yuexi Street, Wuzhong Economic Development Zone, Suzhou",
        "phone_number": "0512-66171777",
        "score": "4,4",
        "business_hours": "11:00-23:30, Montag bis Sonntag",
        "dishes": "Schneeflocken-Rindfleisch"
    },
    {
        "name": "One Plus Conveyor Belt Sushi",
        "area": "Bezirk Wuzhong",
        "cuisine": "japanisch",
        "pricerange": "günstig",
        "metro_station": "false",
        "per_capita_consumption": "58 Yuan",
        "address": "1F, Aeon Mall, Suzhentao Road Nr. 188, Yuexi",
        "phone_number": "0512-65884527",
        "score": "4,4",
        "business_hours": "10:00–22:00, Montag bis Sonntag",
        "dishes": "Foie gras"
    },
    {
        "name": "Nailaoshiguang",
        "area": "Bezirk Wuzhong",
        "cuisine": "westlich",
        "pricerange": "gemäßigt",
        "metro_station": "true",
        "per_capita_consumption": "85 Yuan",
        "address": "1F, Gebäude 13, Mudu Studio",
        "phone_number": "0512-67087949",
        "score": "4,7",
        "business_hours": "09:30-21:00, Montag bis Sonntag",
        "dishes": "Spaghetti Bolognese"
    },
    {
        "name": "Seoul South Korean Cuisine",
        "area": "Bezirk Wuzhong",
        "cuisine": "koreanisch",
        "pricerange": "gemäßigt",
        "metro_station": "true",
        "per_capita_consumption": "81 Yuan",
        "address": "Lifeng Plaza 1F, Baodaidong Straße Nr. 399",
        "phone_number": "139-1359-2929",
        "score": "4,7",
        "business_hours": "10:30-21:00, Montag bis Sonntag",
        "dishes": "Steintopfreis"
    },
    {
        "name": "Northeast Restaurant",
        "area": "Bezirk Wuzhong",
        "cuisine": "nordöstliche chinesische Küche",
        "pricerange": "günstig",
        "metro_station": "false",
        "per_capita_consumption": "49 Yuan",
        "address": "In der Nähe der Kreuzung der Xushi Street und der Zhongshi Street",
        "phone_number": "0512-66310773",
        "score": "4,3",
        "business_hours": "10:30-21:00, Montag bis Sonntag",
        "dishes": "Gekochte Schweinefleischscheiben"
    },
    {
        "name": "Spicy Memory",
        "area": "Suzhou New District",
        "cuisine": "Sichuan",
        "pricerange": "gemäßigt",
        "metro_station": "true",
        "per_capita_consumption": "75 Yuan",
        "address": "Tayuan Road Nr. 162, Suzhou New District",
        "phone_number": "0512-68249987",
        "score": "4,3",
        "business_hours": "10:30-01:00, Montag bis Sonntag",
        "dishes": "Chili-Fischkopf"
    },
    {
        "name": "Aobanian Hot Pot",
        "area": "Suzhou New District",
        "cuisine": "Hot Pot",
        "pricerange": "etwas teurer",
        "metro_station": "true",
        "per_capita_consumption": "127 Yuan",
        "address": "das 6F des Golden Eagle International Shopping Center, Shishan Road Nr. 298",
        "phone_number": "0512-68783880",
        "score": "4,2",
        "business_hours": "11:00-22:00, Montag bis Sonntag",
        "dishes": "die Garnelenbällchen"
    },
    {
        "name": "Dream of Taoyuan",
        "area": "Suzhou New District",
        "cuisine": "Jiangsu-Zhejiang",
        "pricerange": "günstig",
        "metro_station": "true",
        "per_capita_consumption": "31 Yuan",
        "address": "das B1F des Kaufhauses Izumiya, Changjiang Road Nr. 211",
        "phone_number": "0512-68207978",
        "score": "4,5",
        "business_hours": "10:00-21:30, Montag bis Sonntag",
        "dishes": "Tofu-Pudding"
    },
    {
        "name": "Brauerei-Restaurant Le Blé d'Or",
        "area": "Suzhou New District",
        "cuisine": "westlich",
        "pricerange": "etwas teurer",
        "metro_station": "false",
        "per_capita_consumption": "179 Yuan",
        "address": "Etage 4, Jinhe International Building, Shishan Road Nr. 35",
        "phone_number": "0512-66655909",
        "score": "4,6",
        "business_hours": "11:00-24:00, Montag bis Sonntag",
        "dishes": "Pizzen"
    },
    {
        "name": "Japanisches Restaurant Zhiwei",
        "area": "Suzhou New District",
        "cuisine": "japanisch",
        "pricerange": "etwas teurer",
        "metro_station": "false",
        "per_capita_consumption": "215 Yuan",
        "address": "Huaihai Street Nr.11",
        "phone_number": "0512-68618677",
        "score": "4,5",
        "business_hours": "11:00-14:00 16:00-22:00, Montag bis Sonntag",
        "dishes": "Lachs"
    },
    {
        "name": "DuoDuo Wang Hong Kong Style Tea Restaurant",
        "area": "Suzhou New District",
        "cuisine": "kantonesisch",
        "pricerange": "günstig",
        "metro_station": "false",
        "per_capita_consumption": "65 Yuan",
        "address": "Etage 1, Wugong Lidu Commercial Street, Shishan Road Nr. 215",
        "phone_number": "0512-68788933",
        "score": "4,4",
        "business_hours": "09:30-02:00, Montag bis Sonntag",
        "dishes": "Reisbrei mit Meeresfrüchten"
    },
    {
        "name": "Palsaik Koreanisch +Q",
        "area": "Suzhou New District",
        "cuisine": "koreanisch",
        "pricerange": "gemäßigt",
        "metro_station": "true",
        "per_capita_consumption": "103 Yuan",
        "address": "113, 1F von Gebäude 7 im zweiten Abschnitt der Emerald Pedestrian Street, The Emerald City, Changjiang Road",
        "phone_number": "0512-62919949",
        "score": "4,2",
        "business_hours": "10:00–22:00, Montag bis Sonntag",
        "dishes": "scharfes Ramen"
    },
    {
        "name": "Yang's Dumpling",
        "area": "Suzhou New District",
        "cuisine": "Fastfood",
        "pricerange": "günstig",
        "metro_station": "true",
        "per_capita_consumption": "20 Yuan",
        "address": "Changjiang Road Nr. 211, Suzhou New District",
        "phone_number": "0512-68799751",
        "score": "4,5",
        "business_hours": "10:00–22:00, Montag bis Sonntag",
        "dishes": "Gebratener Garnelen Bun"
    },
    {
        "name": "Guan Zhi North",
        "area": "Suzhou New District",
        "cuisine": "nordöstliche chinesische Küche",
        "pricerange": "günstig",
        "metro_station": "false",
        "per_capita_consumption": "58 Yuan",
        "address": "Etage 2, Aeon Mall, Intercity Road Nr. 19",
        "phone_number": "0512-62917283",
        "score": "4,3",
        "business_hours": "10:30-22:00, Montag bis Sonntag",
        "dishes": "Knochen in Soße"
    },
    {
        "name": "Wufangzhai",
        "area": "Bezirk Wujiang",
        "cuisine": "Fastfood",
        "pricerange": "günstig",
        "metro_station": "false",
        "per_capita_consumption": "33 Yuan",
        "address": "Kreuzung der Liuhong Road und der Luxiang South Road, Bezirk Wujiang",
        "phone_number": "0512-63575791",
        "score": "4,6",
        "business_hours": "07:30-20:30, Montag bis Sonntag",
        "dishes": "Fleisch- und Eigelbknödel"
    },
    {
        "name": "Meister Jan",
        "area": "Bezirk Wujiang",
        "cuisine": "Sichuan",
        "pricerange": "gemäßigt",
        "metro_station": "false",
        "per_capita_consumption": "80 Yuan",
        "address": "Zhongqingnian Boutique an der Henggang Road",
        "phone_number": "0512-86876178",
        "score": "4,6",
        "business_hours": "10:00-21:00, Montag bis Sonntag",
        "dishes": "Sichuan Dandan Noodles"
    },
    {
        "name": "Chongqing De Zhuang Hot Pot",
        "area": "Bezirk Wujiang",
        "cuisine": "Hot Pot",
        "pricerange": "etwas teurer",
        "metro_station": "false",
        "per_capita_consumption": "130 Yuan",
        "address": "S3015, F3, Wanbao Plaza, Songling",
        "phone_number": "0512-88982265",
        "score": "4,5",
        "business_hours": "10:00–22:00, Montag bis Sonntag",
        "dishes": "die Garnelenbällchen"
    },
    {
        "name": "Tongli Hometown",
        "area": "Bezirk Wujiang",
        "cuisine": "Jiangsu-Zhejiang",
        "pricerange": "gemäßigt",
        "metro_station": "false",
        "per_capita_consumption": "87 Yuan",
        "address": "Huanhu West Road Nr. 318, Stadt Tongli",
        "phone_number": "0512-63339777",
        "score": "4,5",
        "business_hours": "10:00–22:00, Montag bis Sonntag",
        "dishes": "Weißer Fisch, Silberfischchen und weiße Garnelen des Taihu-Sees"
    },
    {
        "name": "Niutanjia Ben'Ge Holzkohlegrill",
        "area": "Bezirk Wujiang",
        "cuisine": "japanisch",
        "pricerange": "gemäßigt",
        "metro_station": "false",
        "per_capita_consumption": "90 Yuan",
        "address": "Lushen Avenue Nr. 1066, Wirtschaftsentwicklungszone Fenhu",
        "phone_number": "0512-63263679",
        "score": "4,6",
        "business_hours": "11:00-22:00, Montag bis Sonntag",
        "dishes": "Lachs-Sushi"
    },
    {
        "name": "Zhou Zhuang Hua Jian Tang Jie Geng Restaurant",
        "area": "Kunschan",
        "cuisine": "Jiangsu-Zhejiang",
        "pricerange": "gemäßigt",
        "metro_station": "false",
        "per_capita_consumption": "98 Yuan",
        "address": "10 Meter nördlich des malerischen Ortes Zhongshi Street Nr. 110, Stadt Zhouzhuang",
        "phone_number": "138-1289-9961",
        "score": "4,5",
        "business_hours": "07:00-20:30, Montag bis Sonntag",
        "dishes": "Gebratener Whitebait mit Rührei"
    },
    {
        "name": "Xiewang Restaurant",
        "area": "Changshu",
        "cuisine": "Jiangsu-Zhejiang",
        "pricerange": "günstig",
        "metro_station": "false",
        "per_capita_consumption": "60 Yuan",
        "address": "in der Nähe des Parkplatzes der malerischen Gegend, Luweidang Road",
        "phone_number": "0512-52507977",
        "score": "4,8",
        "business_hours": "08:00-20:00, Montag bis Sonntag",
        "dishes": "Haarige Krabbe"
    }
]