[
    {
        "name": "러러차",
        "area": "쑤저우 공업원구",
        "cuisine": "빵과 디저트",
        "pricerange": "저렴한",
        "metro_station": "있음",
        "per_capita_consumption": "44위안",
        "address": "싱강가 쑤저우 센터 북쪽 지하 1층",
        "phone_number": "0512-66363836",
        "score": "4.5점",
        "business_hours": "월요일부터 일요일까지 오전 10시부터 오후 10시까지",
        "dishes": "별모양 커스터드 번"
    },
    {
        "name": "호우 가 페이",
        "area": "우중구",
        "cuisine": "빵과 디저트",
        "pricerange": "적당한",
        "metro_station": "없음",
        "per_capita_consumption": "58위안",
        "address": "남부 상업가, 시후 풍경구, 시후 웨스트 로드",
        "phone_number": "0512-68210779",
        "score": "4.8",
        "business_hours": "월요일부터 일요일까지 오전 9시 반부터 오후 11시까지",
        "dishes": "초콜릿 머핀"
    },
    {
        "name": "폭스 홈 요거트",
        "area": "구수구",
        "cuisine": "빵과 디저트",
        "pricerange": "저렴한",
        "metro_station": "있음",
        "per_capita_consumption": "16위안",
        "address": "핑장로 256호, (바이타 동로 인근)",
        "phone_number": "139-1317-0170",
        "score": "4.5점",
        "business_hours": "월요일부터 일요일까지 오전 10시부터 오후 7시까지",
        "dishes": "직접 만든 요거트"
    },
    {
        "name": "차이즈자이",
        "area": "구수구",
        "cuisine": "빵과 디저트",
        "pricerange": "저렴한",
        "metro_station": "있음",
        "per_capita_consumption": "38위안",
        "address": "쑤저우시 구수구 관천가 9호",
        "phone_number": "0512-67274512",
        "score": "4.3점",
        "business_hours": "월요일부터 일요일까지 오전 8시 반부터 오후 9시 반까지",
        "dishes": "발효 찹쌀로 만든 스콘"
    },
    {
        "name": "라롬",
        "area": "쑤저우 공업원구",
        "cuisine": "빵과 디저트",
        "pricerange": "조금 비싼",
        "metro_station": "있음",
        "per_capita_consumption": "412위안",
        "address": "수씨우로 68호 쑤저우 센터 남쪽 3층 B3-19",
        "phone_number": "0512-69881018",
        "score": "4.5점",
        "business_hours": "월요일부터 일요일까지 오전 11시 반부터 오후 10시까지",
        "dishes": "버섯 수프 크림"
    },
    {
        "name": "야마자키 베이커리",
        "area": "쑤저우 신구",
        "cuisine": "빵과 디저트",
        "pricerange": "저렴한",
        "metro_station": "있음",
        "per_capita_consumption": "26위안",
        "address": "창장로 211호 이즈미야 백화점 지하 1층",
        "phone_number": "0512-62396721",
        "score": "4.6점",
        "business_hours": "월요일부터 일요일까지 오전 10시부터 오후 10시까지",
        "dishes": "퀸 브레드"
    },
    {
        "name": "귀미지아",
        "area": "우장구",
        "cuisine": "빵과 디저트",
        "pricerange": "저렴한",
        "metro_station": "없음",
        "per_capita_consumption": "23위안",
        "address": "서탄허로 3호",
        "phone_number": "0512-63336664",
        "score": "4.8",
        "business_hours": "월요일부터 일요일까지 오터 오후 9시 반까지",
        "dishes": "달걀과 고기가 들어간 월병"
    },
    {
        "name": "농러유안 숯불 바비큐",
        "area": "구수구",
        "cuisine": "한국",
        "pricerange": "적당한",
        "metro_station": "있음",
        "per_capita_consumption": "88위안",
        "address": "광지남로 19호 시청 용지에 빌딩 5층 A502",
        "phone_number": "0512-68659822",
        "score": "4.6점",
        "business_hours": "월요일부터 일요일까지 오전 11시부터 오후 2시 그리고 오후 4시 반부터 오후 9시 반까지",
        "dishes": "돌솥밥"
    },
    {
        "name": "반위안 개인 가정 요리",
        "area": "구수구",
        "cuisine": "장쑤성-저장성",
        "pricerange": "조금 비싼",
        "metro_station": "없음",
        "per_capita_consumption": "204위안",
        "address": "핑장로 북쪽 추안팡 골목 3호",
        "phone_number": "139-6217-0368",
        "score": "4.7점",
        "business_hours": "월요일부터 일요일까지 오전 11시 반부터 오후 2시까지, 오후 5시 반부터 오후 9시 반까지",
        "dishes": "장미향 생선 튀김"
    },
    {
        "name": "송학루 식당",
        "area": "구수구",
        "cuisine": "장쑤성-저장성",
        "pricerange": "조금 비싼",
        "metro_station": "있음",
        "per_capita_consumption": "150위안",
        "address": "(현묘관 근처) 타이지안농 72호",
        "phone_number": "0512-67700688",
        "score": "3.5점",
        "business_hours": "월요일부터 일요일까지 오전 11시부터 오후 1시 반 그리고 오후 5시부터 8시 반까지",
        "dishes": "새콤달콤한 만다린 생선"
    },
    {
        "name": "푸샤오지에짜이청두",
        "area": "구수구",
        "cuisine": "사천",
        "pricerange": "적당한",
        "metro_station": "없음",
        "per_capita_consumption": "73위안",
        "address": "쑤저우 전통 중의학 박물관 옆 징더로와 슈에스가 교차점에",
        "phone_number": "0512-67299832",
        "score": "4.6점",
        "business_hours": "월요일부터 일요일까지 오전 11시부터 자정까지",
        "dishes": "흑설탕 찹쌀떡"
    },
    {
        "name": "라오티안차오 개구리 훠궈",
        "area": "구수구",
        "cuisine": "훠궈",
        "pricerange": "조금 비싼",
        "metro_station": "없음",
        "per_capita_consumption": "120위안",
        "address": "슈에스가 54호",
        "phone_number": "0512-65816338",
        "score": "4.6점",
        "business_hours": "월요일부터 일요일까지 하루 종일",
        "dishes": "황소개구리"
    },
    {
        "name": "당궁해선방",
        "area": "구수구",
        "cuisine": "광둥",
        "pricerange": "조금 비싼",
        "metro_station": "있음",
        "per_capita_consumption": "135위안",
        "address": "관첸제 245호 메트로몰 동쪽 빌딩 5층",
        "phone_number": "0512-69168288",
        "score": "4.6점",
        "business_hours": "월요일부터 일요일까지 오전 10시부터 오후 10시까지",
        "dishes": "된장 닭발찜"
    },
    {
        "name": "베이징 식당",
        "area": "구수구",
        "cuisine": "북서부",
        "pricerange": "저렴한",
        "metro_station": "있음",
        "per_capita_consumption": "67위안",
        "address": "동간장로 428호",
        "phone_number": "0512-67557020",
        "score": "4.4점",
        "business_hours": "월요일부터 일요일까지 오전 10시부터 오후 10시까지",
        "dishes": "신장 다판지"
    },
    {
        "name": "리리샤오차오",
        "area": "구수구",
        "cuisine": "북동부 중국요리",
        "pricerange": "저렴한",
        "metro_station": "없음",
        "per_capita_consumption": "29위안",
        "address": "쑤저우 대학교 서문 스즈가 1호",
        "phone_number": "180-1350-3488",
        "score": "4.5점",
        "business_hours": "월요일부터 일요일까지 오전 8시부터 오후 9시까지",
        "dishes": "회과육"
    },
    {
        "name": "동우 국수집",
        "area": "구수구",
        "cuisine": "패스트푸드",
        "pricerange": "저렴한",
        "metro_station": "있음",
        "per_capita_consumption": "18위안",
        "address": "북통징로 22호",
        "phone_number": "0512-65707783",
        "score": "4.7점",
        "business_hours": "월요일부터 일요일까지 오전 6시부터 오후 2시까지, 오후 4시 반부터 오후 7시까지",
        "dishes": "닭 국수"
    },
    {
        "name": "더유에러우",
        "area": "쑤저우 공업원구",
        "cuisine": "장쑤성-저장성",
        "pricerange": "조금 비싼",
        "metro_station": "없음",
        "per_capita_consumption": "176위안",
        "address": "리공 코즈웨이 로드 22호",
        "phone_number": "0512-62656999",
        "score": "4.3점",
        "business_hours": "월요일부터 일요일까지 오전 10시 반부터 오후 2시까지, 오후 4시 반부터 오후 9시까지",
        "dishes": "두부 게조림"
    },
    {
        "name": "완유팅·허지아르번 요리 데판야끼",
        "area": "쑤저우 공업원구",
        "cuisine": "일본",
        "pricerange": "조금 비싼",
        "metro_station": "없음",
        "per_capita_consumption": "177위안",
        "address": "신강가 158호 후빈 신티안디 레이크사이드 빌딩 1층",
        "phone_number": "0512-67678177",
        "score": "4.5점",
        "business_hours": "월요일부터 일요일까지 오전 10시부터 오후 3시 그리고 오후 5시부터 10시 반까지",
        "dishes": "연어"
    },
    {
        "name": "할머니 집",
        "area": "쑤저우 공업원구",
        "cuisine": "장쑤성-저장성",
        "pricerange": "저렴한",
        "metro_station": "있음",
        "per_capita_consumption": "63위안",
        "address": "쑤저우 공업원구 왕둔로 269호 하모니 시티 4층",
        "phone_number": "0512-62857757",
        "score": "4.5점",
        "business_hours": "월요일부터 일요일까지 오전 11시부터 오후 2시 그리고 오후 4시 반부터 9시까지",
        "dishes": "할머니 표 훙사오러우"
    },
    {
        "name": "왕 스테이크",
        "area": "쑤저우 공업원구",
        "cuisine": "서양",
        "pricerange": "조금 비싼",
        "metro_station": "있음",
        "per_capita_consumption": "405위안",
        "address": "동쪽 쑤저우 대로와 후아츠가 교차로에 있는 신콩 플레이스 2층",
        "phone_number": "0512-62567071",
        "score": "4.6점",
        "business_hours": "월요일부터 일요일까지 오전 11시 반부터 오후 2시 그리고 오후 5시 반부터 9시까지",
        "dishes": "타이수 소고기 스테이크"
    },
    {
        "name": "하이디라오 훠궈",
        "area": "쑤저우 공업원구",
        "cuisine": "훠궈",
        "pricerange": "조금 비싼",
        "metro_station": "없음",
        "per_capita_consumption": "127위안",
        "address": "슈야로 318호 세이지 디지털 플라자 4층에 있습니다.",
        "phone_number": "0512-67603337",
        "score": "4.8",
        "business_hours": "월요일부터 일요일까지 오전 9시부터 오전 7시까지",
        "dishes": "토마토탕을 드셔보는 것을 추천드립니다"
    },
    {
        "name": "시베이 식당",
        "area": "쑤저우 공업원구",
        "cuisine": "북서부",
        "pricerange": "적당한",
        "metro_station": "있음",
        "per_capita_consumption": "92위안",
        "address": "왕둔로 269호 하모니 시티 4층",
        "phone_number": "400-8207320",
        "score": "4.6점",
        "business_hours": "월요일부터 일요일까지 오전 10시 반부터 오후 9시 반까지",
        "dishes": "큰 소뼈"
    },
    {
        "name": "쩐핀유에 티하우스",
        "area": "쑤저우 공업원구",
        "cuisine": "광둥",
        "pricerange": "적당한",
        "metro_station": "있음",
        "per_capita_consumption": "99위안",
        "address": "수씨우로 386호 티안시앙가든 133호",
        "phone_number": "0512-62568777",
        "score": "4.4점",
        "business_hours": "월요일부터 일요일까지 오전 10시 반부터 오후 9시 반까지",
        "dishes": "구운 거위"
    },
    {
        "name": "리버사이드 생선구이",
        "area": "쑤저우 공업원구",
        "cuisine": "사천",
        "pricerange": "적당한",
        "metro_station": "있음",
        "per_capita_consumption": "90위안",
        "address": "왕둔로 269호 하모니 별자리 플라자 시티",
        "phone_number": "0512-67634656",
        "score": "4.3점",
        "business_hours": "월요일부터 일요일까지 오전 10시 반부터 오후 10시까지",
        "dishes": "특제 소스를 곁들인 생선 통구이"
    },
    {
        "name": "칭허구",
        "area": "쑤저우 공업원구",
        "cuisine": "한국",
        "pricerange": "조금 비싼",
        "metro_station": "없음",
        "per_capita_consumption": "154위안",
        "address": "리공디 3기 21호 빌딩",
        "phone_number": "0512-67635689",
        "score": "4.8",
        "business_hours": "월요일부터 일요일까지 오전 11시 반부터 오후 9시까지",
        "dishes": "김치 파이"
    },
    {
        "name": "신화시 소고기 쌀국수",
        "area": "쑤저우 공업원구",
        "cuisine": "패스트푸드",
        "pricerange": "저렴한",
        "metro_station": "없음",
        "per_capita_consumption": "24위안",
        "address": "호우다이가 9호 쑤저우 스테이지 2층",
        "phone_number": "0512-62811808",
        "score": "4.6점",
        "business_hours": "월요일부터 일요일까지 오전 9시부터 오후 8시까지",
        "dishes": "소고기 내장 국물 국수"
    },
    {
        "name": "굿맨 민속 간식",
        "area": "우중구",
        "cuisine": "패스트푸드",
        "pricerange": "저렴한",
        "metro_station": "있음",
        "per_capita_consumption": "42위안",
        "address": "진산로 47-1호 (무두톈훙몰 B1층 B1001-2호)",
        "phone_number": "0512-83989318",
        "score": "4.5점",
        "business_hours": "월요일부터 일요일까지 오전 10시부터 오후 8시 반까지",
        "dishes": "절인 배추와 고추를 곁들인 삶은 순살 생선"
    },
    {
        "name": "라오펑팅",
        "area": "우중구",
        "cuisine": "장쑤성-저장성",
        "pricerange": "적당한",
        "metro_station": "없음",
        "per_capita_consumption": "94위안",
        "address": "무두 린티안로 55호 파타야 레저 엔터테인먼트 플라자 5번 빌딩",
        "phone_number": "0512-66277557",
        "score": "4.6점",
        "business_hours": "월요일부터 일요일까지 오전 11시부터 오후 1시 반 그리고 오후 5시부터 8시 반까지",
        "dishes": "새콤달콤한 만다린 생선"
    },
    {
        "name": "양구안구런",
        "area": "우중구",
        "cuisine": "북서부",
        "pricerange": "적당한",
        "metro_station": "없음",
        "per_capita_consumption": "87위안",
        "address": "지우화로 128호 CR 뱅가드 엘리베이터 바로 옆 3층",
        "phone_number": "0512-65074650",
        "score": "4.8",
        "business_hours": "월요일부터 일요일까지 오전 10시부터 오후 10시까지",
        "dishes": "샬롯을 곁들인 양고기 튀김"
    },
    {
        "name": "쓰촨 씨앙 티안 시아 훠궈",
        "area": "우중구",
        "cuisine": "훠궈",
        "pricerange": "적당한",
        "metro_station": "없음",
        "per_capita_consumption": "97위안",
        "address": "쑤저우 우중경제개발구 우중가 1109호 1층",
        "phone_number": "0512-66171777",
        "score": "4.4점",
        "business_hours": "월요일부터 일요일까지 오전 11시부터 오후 11시 반까지",
        "dishes": "눈꽃 소고기"
    },
    {
        "name": "원 플러스 회전 초밥",
        "area": "우중구",
        "cuisine": "일본",
        "pricerange": "저렴한",
        "metro_station": "없음",
        "per_capita_consumption": "58위안",
        "address": "유에씨 쑤젠타오로 188호 이온몰 1층",
        "phone_number": "0512-65884527",
        "score": "4.4점",
        "business_hours": "월요일부터 일요일까지 오전 10시부터 오후 10시까지",
        "dishes": "푸아그라"
    },
    {
        "name": "나이라오스광",
        "area": "우중구",
        "cuisine": "서양",
        "pricerange": "적당한",
        "metro_station": "있음",
        "per_capita_consumption": "85위안",
        "address": "무두 스튜디오 13번 빌딩 1층",
        "phone_number": "0512-67087949",
        "score": "4.7점",
        "business_hours": "월요일부터 일요일까지 오전 9시 반부터 오후 9시까지",
        "dishes": "볼로네제 스파게티"
    },
    {
        "name": "서울 한식당",
        "area": "우중구",
        "cuisine": "한국",
        "pricerange": "적당한",
        "metro_station": "있음",
        "per_capita_consumption": "81위안",
        "address": "바오다이동로 399호 리펑플라자 1층에",
        "phone_number": "139-1359-2929",
        "score": "4.7점",
        "business_hours": "월요일부터 일요일까지 오전 10시 반부터 오후 9시까지",
        "dishes": "돌솥밥"
    },
    {
        "name": "북동부 식당",
        "area": "우중구",
        "cuisine": "북동부 중국요리",
        "pricerange": "저렴한",
        "metro_station": "없음",
        "per_capita_consumption": "49위안",
        "address": "쉬시 거리와 중시 거리의 교차점 근처",
        "phone_number": "0512-66310773",
        "score": "4.3점",
        "business_hours": "월요일부터 일요일까지 오전 10시 반부터 오후 9시까지",
        "dishes": "익힌 돼지고기 슬라이스"
    },
    {
        "name": "스파이시 메모리",
        "area": "쑤저우 신구",
        "cuisine": "사천",
        "pricerange": "적당한",
        "metro_station": "있음",
        "per_capita_consumption": "75위안",
        "address": "쑤저우 신구 타위안로 162호",
        "phone_number": "0512-68249987",
        "score": "4.3점",
        "business_hours": "월요일부터 일요일까지 오전 10시 반부터 오전 1시까지",
        "dishes": "칠리 생선 머리"
    },
    {
        "name": "아오빠니엔 훠궈",
        "area": "쑤저우 신구",
        "cuisine": "훠궈",
        "pricerange": "조금 비싼",
        "metro_station": "있음",
        "per_capita_consumption": "127위안",
        "address": "시샨로 298호 골든 이글 국제 쇼핑 센터 6층",
        "phone_number": "0512-68783880",
        "score": "4.2점",
        "business_hours": "월요일부터 일요일까지 오전 11시부터 오후 10시까지",
        "dishes": "새우볼"
    },
    {
        "name": "타오위안의 꿈",
        "area": "쑤저우 신구",
        "cuisine": "장쑤성-저장성",
        "pricerange": "저렴한",
        "metro_station": "있음",
        "per_capita_consumption": "31위안",
        "address": "창장로 211호 이즈미야 백화점 지하 1층",
        "phone_number": "0512-68207978",
        "score": "4.5점",
        "business_hours": "월요일부터 일요일까지 오전 10시부터 오후 9시 반까지",
        "dishes": "두부 푸딩"
    },
    {
        "name": "진써싼마이 맥주집",
        "area": "쑤저우 신구",
        "cuisine": "서양",
        "pricerange": "조금 비싼",
        "metro_station": "없음",
        "per_capita_consumption": "179위안",
        "address": "시산로 35호 진허국제빌딩 4층",
        "phone_number": "0512-66655909",
        "score": "4.6점",
        "business_hours": "월요일부터 일요일까지 오전 11시부터 자정까지",
        "dishes": "피자"
    },
    {
        "name": "쯔웨이 일식당",
        "area": "쑤저우 신구",
        "cuisine": "일본",
        "pricerange": "조금 비싼",
        "metro_station": "없음",
        "per_capita_consumption": "215위안",
        "address": "화이하이 가 11호",
        "phone_number": "0512-68618677",
        "score": "4.5점",
        "business_hours": "월요일부터 일요일까지 오전 11시부터 오후 2시까지, 오후 4시부터 오후 10시까지",
        "dishes": "연어"
    },
    {
        "name": "두오두오 왕 홍콩 스타일 티 레스토랑",
        "area": "쑤저우 신구",
        "cuisine": "광둥",
        "pricerange": "저렴한",
        "metro_station": "없음",
        "per_capita_consumption": "65위안",
        "address": "시샨로 215호 우공리두 상업가 1층",
        "phone_number": "0512-68788933",
        "score": "4.4점",
        "business_hours": "월요일부터 일요일까지 오전 9시 반부터 새벽 2시까지",
        "dishes": "해물죽"
    },
    {
        "name": "팔색 한국 바비큐",
        "area": "쑤저우 신구",
        "cuisine": "한국",
        "pricerange": "적당한",
        "metro_station": "있음",
        "per_capita_consumption": "103위안",
        "address": "창지앙로 에메랄드 시티 에메랄드 보행로 두 번째 구역 7번 빌딩 1층 113",
        "phone_number": "0512-62919949",
        "score": "4.2점",
        "business_hours": "월요일부터 일요일까지 오전 10시부터 오후 10시까지",
        "dishes": "매운 라면"
    },
    {
        "name": "양이네 만두",
        "area": "쑤저우 신구",
        "cuisine": "패스트푸드",
        "pricerange": "저렴한",
        "metro_station": "있음",
        "per_capita_consumption": "20위안",
        "address": "쑤저우 신구 창지앙로 211호",
        "phone_number": "0512-68799751",
        "score": "4.5점",
        "business_hours": "월요일부터 일요일까지 오전 10시부터 오후 10시까지",
        "dishes": "쉬림프 번"
    },
    {
        "name": "관지노스",
        "area": "쑤저우 신구",
        "cuisine": "북동부 중국요리",
        "pricerange": "저렴한",
        "metro_station": "없음",
        "per_capita_consumption": "58위안",
        "address": "시외로 19호 이온몰 2층",
        "phone_number": "0512-62917283",
        "score": "4.3점",
        "business_hours": "월요일부터 일요일까지 오전 10시 반부터 오후 10시까지",
        "dishes": "뼈 국물"
    },
    {
        "name": "우팡자이",
        "area": "우장구",
        "cuisine": "패스트푸드",
        "pricerange": "저렴한",
        "metro_station": "없음",
        "per_capita_consumption": "33위안",
        "address": "우장구 류홍로와 루샹남로 교차로",
        "phone_number": "0512-63575791",
        "score": "4.6점",
        "business_hours": "월요일부터 일요일까지 오전 7시 반부터 오후 8시 반까지",
        "dishes": "고기와 계란 노른자가 들어간 만두"
    },
    {
        "name": "마스터 얀",
        "area": "우장구",
        "cuisine": "사천",
        "pricerange": "적당한",
        "metro_station": "없음",
        "per_capita_consumption": "80위안",
        "address": "헌강로 중칭니엔 부티크",
        "phone_number": "0512-86876178",
        "score": "4.6점",
        "business_hours": "월요일부터 일요일까지 오전 10시부터 오후 9시까지",
        "dishes": "쓰촨 탄탄면"
    },
    {
        "name": "충칭 더 주앙 훠궈",
        "area": "우장구",
        "cuisine": "훠궈",
        "pricerange": "조금 비싼",
        "metro_station": "없음",
        "per_capita_consumption": "130위안",
        "address": "송링 완바오 플라자 3층 S3015",
        "phone_number": "0512-88982265",
        "score": "4.5점",
        "business_hours": "월요일부터 일요일까지 오전 10시부터 오후 10시까지",
        "dishes": "새우볼"
    },
    {
        "name": "통리 고향",
        "area": "우장구",
        "cuisine": "장쑤성-저장성",
        "pricerange": "적당한",
        "metro_station": "없음",
        "per_capita_consumption": "87위안",
        "address": "퉁리 타운 환후서로 318호",
        "phone_number": "0512-63339777",
        "score": "4.5점",
        "business_hours": "월요일부터 일요일까지 오전 10시부터 오후 10시까지",
        "dishes": "타이후 호수의 흰 물고기, 은어와 흰 새우"
    },
    {
        "name": "니우탄지아 벤거 숯불 바비큐",
        "area": "우장구",
        "cuisine": "일본",
        "pricerange": "적당한",
        "metro_station": "없음",
        "per_capita_consumption": "90위안",
        "address": "펜후 경제 개발구 루셴가 1066호",
        "phone_number": "0512-63263679",
        "score": "4.6점",
        "business_hours": "월요일부터 일요일까지 오전 11시부터 오후 10시까지",
        "dishes": "연어 초밥"
    },
    {
        "name": "저우좡 화지안탕지에겅 식당",
        "area": "쿤산시",
        "cuisine": "장쑤성-저장성",
        "pricerange": "적당한",
        "metro_station": "없음",
        "per_capita_consumption": "98위안",
        "address": "저우좡 마을 종시가 110호 명승지에서 북쪽으로 10미터 떨어진 곳",
        "phone_number": "138-1289-9961",
        "score": "4.5점",
        "business_hours": "월요일부터 일요일까지 오전 7시부터 오후 8시 반까지",
        "dishes": "스크램블 에그를 곁들인 뱅어 튀김"
    },
    {
        "name": "시에왕 식당",
        "area": "창수",
        "cuisine": "장쑤성-저장성",
        "pricerange": "저렴한",
        "metro_station": "없음",
        "per_capita_consumption": "60위안",
        "address": "루웨이당로 명승지 주차장 근처",
        "phone_number": "0512-52507977",
        "score": "4.8",
        "business_hours": "월요일부터 일요일까지 오전 8시부터 오후 8시까지",
        "dishes": "털게"
    }
]